[{"state": "AL", "opening_event": "", "address": "1813 4th Ave. N., Birmingham, AL 35203", "name": "Birmingham", "lat": "33.516023", "phone": "(205) 518-8811", "photo": "https://i.imgur.com/YGRaXGC.png", "lon": "-86.809728"}, {"state": "AL", "opening_event": "", "address": "2101 Eastern Blvd., Montgomery, AL 36117", "name": "Montgomery", "lat": "32.351347", "phone": "(334) 239-0303", "photo": "https://i.imgur.com/s6X1FgY.png", "lon": "-86.218621"}, {"state": "AR", "opening_event": "", "address": "546 W. Center St., Fayetteville, AR 72701", "name": "Fayetteville", "lat": "36.063204", "phone": "(501) 607-0009", "photo": "https://i.imgur.com/bhQu2OP.png", "lon": "-94.166665"}, {"state": "AR", "opening_event": "", "address": "721 W. 2nd St., Little Rock, AR 72201", "name": "Little Rock", "lat": "34.748019", "phone": "(501) 517-1947", "photo": "https://i.imgur.com/zJbMnEw.png", "lon": "-92.278702"}, {"state": "AZ", "opening_event": "", "address": "1301 E. Washington St., Phoenix, AZ 85034", "name": "Phoenix", "lat": "33.447948", "phone": "(602) 354-5179", "photo": "https://i.imgur.com/qdEZ7Pl.png", "lon": "-112.053936"}, {"state": "AZ", "opening_event": "", "address": "1832 East 6th St., Tucson, AZ 85719", "name": "Tucson", "lat": "32.22758", "phone": "(626) 485-3422", "photo": "https://i.imgur.com/x3mk6mF.png", "lon": "-110.944296"}, {"state": "CO", "opening_event": "", "address": "3 S. Tejon St., Colorado Springs, CO 80903", "name": "Colorado Springs", "lat": "38.833637", "phone": "(719) 471-6918", "photo": "https://i.imgur.com/YZ0xyr7.png", "lon": "-104.823312"}, {"state": "CO", "opening_event": "", "address": "5705 W 25th Ave., Edgewater, CO 80214", "name": "Denver", "lat": "39.753135", "phone": "(303) 238-0166", "photo": "https://i.imgur.com/cw5GSIy.png", "lon": "-105.059607"}, {"state": "CO", "opening_event": "", "address": "7235 E Colfax Ave., Denver, CO 80220", "name": "East Denver", "lat": "39.740504", "phone": "(303) 321-0089", "photo": "https://i.imgur.com/j1GzpG8.png", "lon": "-104.90419"}, {"state": "CO", "opening_event": "", "address": "1200 S College Ave., Fort Collins, CO 80524", "name": "Fort Collins", "lat": "40.571671", "phone": "(970) 449-4276", "photo": "https://i.imgur.com/9mYRLCO.png", "lon": "-105.076652"}, {"state": "DC", "opening_event": "", "address": "312 Massachusetts Ave. NE, Washington, DC 20002", "name": "Washington, D.C.", "lat": "38.8943255", "phone": "(202) 506-5831", "photo": "https://imgur.com/zJuvxXJ.png", "lon": "-77.0013426"}, {"state": "FL", "opening_event": "https://goo.gl/IenOHS", "address": "1710 Main St. N, Jacksonville, FL 32206", "name": "Jacksonville (Opening March 4th - Click Here to RSVP)", "lat": "30.344662", "phone": "(904) 805-2180", "photo": "https://i.imgur.com/vuqXq5C.png", "lon": "-81.654256"}, {"state": "FL", "opening_event": "https://goo.gl/ubaAow", "address": "48 NW 25th St., Miami, FL 33127", "name": "Miami (Opening March 4th - Click Here to RSVP)", "lat": "25.800521", "phone": "(786) 600-3734", "photo": "https://i.imgur.com/W3vsscN.png", "lon": "-80.195925"}, {"state": "FL", "opening_event": "https://goo.gl/We1iOj", "address": "1200 E. Hillcrest St., Orlando, FL 32803", "name": "Orlando (Opening March 4th - Click Here to RSVP)", "lat": "28.552045", "phone": "(954) 895-1622", "photo": "https://i.imgur.com/WXsZZhf.png", "lon": "-81.364015"}, {"state": "GA", "opening_event": "", "address": "297 Prince Ave., Athens, GA 31621 (Suite 15)", "name": "Athens", "lat": "33.960118", "phone": "(706) 521-9292", "photo": "https://i.imgur.com/Itfnmya.png", "lon": "-83.383213"}, {"state": "GA", "opening_event": "", "address": "236 Auburn Ave., Atlanta, GA 30303 (Suite 204)", "name": "Atlanta", "lat": "33.755676", "phone": "(470) 725-3093", "photo": "https://i.imgur.com/XLfWywb.png", "lon": "-84.379878"}, {"state": "GA", "opening_event": "", "address": "127 Abercorn St., Savannah, GA 31401 (Suite 403B)", "name": "Savannah", "lat": "32.077328", "phone": "(912) 659.2746", "photo": "https://i.imgur.com/JfCzZNZ.png", "lon": "-81.090702"}, {"state": "IA", "opening_event": "", "address": "500 West Broadway, Council Bluffs, IA 51503", "name": "Council Bluffs", "lat": "41.2612218", "phone": "(712) 323-7232", "photo": "https://i.imgur.com/F9AExrf.png", "lon": "-95.8499378"}, {"state": "IA", "opening_event": "", "address": "736 Federal St., Davenport, IA 52801", "name": "Davenport", "lat": "41.5247596", "phone": "(563) 323-0559", "photo": "https://i.imgur.com/zAxjGHT.png", "lon": "-90.5633143"}, {"state": "IA", "opening_event": "", "address": "3839 Merle Hay, Des Moines, IA 50310", "name": "Des Moines", "lat": "41.6308099", "phone": "(515) 251-6335", "photo": "https://i.imgur.com/BVPuA37.png", "lon": "-93.697183"}, {"state": "IL", "opening_event": "", "address": "144 W. Wilson St., Batavia, IL 60510", "name": "Batavia", "lat": "41.849871", "phone": "(630) 406-5035 ", "photo": "https://i.imgur.com/PQj0oRO.png", "lon": "-88.309993"}, {"state": "IL", "opening_event": "", "address": "6902 Cermak Rd., Berwyn, IL 60402", "name": "Berwyn", "lat": "41.850704", "phone": "(708) 317-4550", "photo": "https://i.imgur.com/OjujDdA.png", "lon": "-87.796034"}, {"state": "IL", "opening_event": "", "address": "715 S University Ave., Carbondale, IL 62901", "name": "Carbondale", "lat": "37.720141", "phone": "(603) 851-6003", "photo": "https://i.imgur.com/rdvwDp1.png", "lon": "-89.217459"}, {"state": "IL", "opening_event": "", "address": "1717 Philo Rd., Urbana, IL 61802 (Suite 12)", "name": "Champaign-Urbana", "lat": "40.097017", "phone": "(217) 693-7068", "photo": "https://i.imgur.com/XPljMT8.png", "lon": "-88.192353"}, {"state": "IL", "opening_event": "", "address": "600 W Roosevelt Rd., Chicago, IL 60607", "name": "Chicago", "lat": "41.867602", "phone": "(312) 877-5318", "photo": "https://i.imgur.com/toHoTM6.png", "lon": "-87.642415"}, {"state": "IL", "opening_event": "", "address": "705 E. 75th St., Chicago, IL 60619", "name": "Chicago - South Side", "lat": "41.758309", "phone": "(773) 962-2298", "photo": "https://i.imgur.com/zAjm1Ed.png", "lon": "-87.607474"}, {"state": "IL", "opening_event": "", "address": "114 W Main St., Collinsville, IL 62234", "name": "Collinsville", "lat": "38.6697", "phone": "(618) 855-8757", "photo": "https://i.imgur.com/JgQbDLN.png", "lon": "-89.986851"}, {"state": "IL", "opening_event": "", "address": "217 Franklin St., DeKalb, IL 60115", "name": "DeKalb", "lat": "41.928334", "phone": "(815) 754-0704", "photo": "https://i.imgur.com/c0BvrV3.png", "lon": "-88.752934"}, {"state": "IL", "opening_event": "", "address": "516 Dempster Ave., Evanston, IL 60202", "name": "Evanston", "lat": "42.041015", "phone": "(847) 856-6812", "photo": "https://i.imgur.com/uiqPeMM.png", "lon": "-87.679873"}, {"state": "IL", "opening_event": "", "address": "58 N Chicago St., Joliet, IL 60432", "name": "Joliet", "lat": "41.525252", "phone": "(779) 379-5775", "photo": "https://i.imgur.com/h55kG2E.png", "lon": "-88.081342"}, {"state": "IL", "opening_event": "", "address": "112 S. Main St., Lombard, IL 60148", "name": "Lombard", "lat": "41.885883", "phone": "(630) 709-5754", "photo": "https://i.imgur.com/C2FGyYJ.png", "lon": "-88.018536"}, {"state": "IL", "opening_event": "", "address": "309 Mulberry St., Rockford, IL", "name": "Rockford", "lat": "42.272395", "phone": "(779) 210-7434", "photo": "https://i.imgur.com/MUTSWMG.png", "lon": "-89.094244"}, {"state": "IL", "opening_event": "", "address": "1535 W Wabash Ave., Springfield, IL 62704", "name": "Springfield", "lat": "39.76456", "phone": "(773) 962-2298", "photo": "https://i.imgur.com/0q2DL7K.png", "lon": "-89.67928"}, {"state": "IL", "opening_event": "", "address": "1534 Washington St., Waukegan, IL 60085", "name": "Waukegan", "lat": "42.359692", "phone": "(224) 637-8590", "photo": "https://i.imgur.com/Ipsa8pq.png", "lon": "-87.851007"}, {"state": "IL", "opening_event": "", "address": "918 15th Ave., East Moline, IL 61244", "name": "Quad Cities", "lat": "41.515828", "phone": "(309) 755-2628", "photo": "https://i.imgur.com/LSJxRkX.png", "lon": "-90.440135"}, {"state": "KS", "opening_event": "", "address": "12009 Johnson Dr., Shawnee, KS 66212", "name": "Kansas City", "lat": "39.022651", "phone": "(913) 333-6120", "photo": "https://i.imgur.com/xXdhgf7.png", "lon": "-94.726133"}, {"state": "KS", "opening_event": "", "address": "925 Iowa St., Lawrence, KS 66044", "name": "Lawrence", "lat": "38.96725", "phone": "(785) 766-5390", "photo": "https://i.imgur.com/HYJoWoZ.png", "lon": "-95.262252"}, {"state": "KS", "opening_event": "", "address": "1716 E. Douglas Ave., Wichita, KS 67214", "name": "Wichita", "lat": "37.686378", "phone": "(316) 680-0304", "photo": "https://i.imgur.com/mXbUuHn.png", "lon": "-97.316515"}, {"state": "LA", "opening_event": "", "address": "3200 Ridgelake Dr., Metairie, LA 70002", "name": "New Orleans", "lat": "30.007899", "phone": "(504) 475-6603", "photo": "https://i.imgur.com/fhJ1lP1.png", "lon": "-90.15397"}, {"state": "ME", "opening_event": "", "address": "6 Chestnut St., Augusta, ME 04330", "name": "Augusta", "lat": "44.313324", "phone": "(207) 712-9644", "photo": "https://i.imgur.com/1zG178X.png", "lon": "-69.768306"}, {"state": "ME", "opening_event": "", "address": "6 State St., Bangor, ME 04401 (Suite 314)", "name": "Bangor", "lat": "44.802292", "phone": "(207) 227-0196", "photo": "https://i.imgur.com/HmKi1PW.png", "lon": "-68.770071"}, {"state": "ME", "opening_event": "", "address": "110 Lisbon St., Lewiston, ME 04240", "name": "Lewiston", "lat": "44.096876", "phone": "(207) 650-9025", "photo": "https://i.imgur.com/Ldk9qxC.png", "lon": "-70.21732"}, {"state": "ME", "opening_event": "", "address": "465 Congress St., Portland, ME 04101", "name": "Portland", "lat": "43.657448", "phone": "(207) 956-3979", "photo": "https://i.imgur.com/4QVKdfj.png", "lon": "-70.259479"}, {"state": "MI", "opening_event": "", "address": "4072 Packard Rd., Ann Arbor, MI 48108", "name": "Ann Arbor / Ypsi", "lat": "42.24546", "phone": "(734) 548-7864", "photo": "https://i.imgur.com/fkFMlYh.png", "lon": "-83.679144"}, {"state": "MI", "opening_event": "", "address": "4907 Schaefer Rd., Dearborn, MI 48126", "name": "Dearborn", "lat": "42.322913", "phone": "(603) 493-7715", "photo": "https://i.imgur.com/AyosNUz.png", "lon": "-83.176284"}, {"state": "MI", "opening_event": "", "address": "7500 Oakland St., Detroit MI 48211", "name": "Detroit", "lat": "42.375522", "phone": "(313) 826-2434", "photo": "https://i.imgur.com/JsXJSjX.png", "lon": "-83.065255"}, {"state": "MI", "opening_event": "", "address": "600 Harrison St., Flint, MI 48502", "name": "Flint", "lat": "43.015388", "phone": "(989) 859-6649", "photo": "https://i.imgur.com/7uYEPPX.png", "lon": "-83.688789"}, {"state": "MI", "opening_event": "", "address": "3446 Plainfield Ave. NE, Grand Rapids, MI 49525", "name": "Grand Rapids", "lat": "43.026333", "phone": "(845) 901-5659", "photo": "https://i.imgur.com/R5vuVYW.png", "lon": "-85.632427"}, {"state": "MI", "opening_event": "", "address": "4038 N Westnedge Ave., Kalamazoo, MI 49094", "name": "Kalamazoo", "lat": "42.331313", "phone": "(603) 998-4415", "photo": "https://i.imgur.com/iNNRnAE.png", "lon": "-85.588239"}, {"state": "MI", "opening_event": "", "address": "2722 E Michigan Ave., Lansing, MI 48912 (Suite 101)", "name": "Lansing", "lat": "42.733068", "phone": "(540) 532-2222", "photo": "https://i.imgur.com/Qwd4VuQ.png", "lon": "-84.512831"}, {"state": "MI", "opening_event": "", "address": "4 North Saginaw St., Pontiac, MI 48342", "name": "Pontiac", "lat": "42.636867", "phone": "(603) 851-5420", "photo": "https://i.imgur.com/SfODkNx.png", "lon": "-83.2915"}, {"state": "MI", "opening_event": "", "address": "1614 Mershon St., Saginaw, MI 48602", "name": "Saginaw", "lat": "43.430944", "phone": "(248) 210-0455", "photo": "https://i.imgur.com/2Mp4ut9.png", "lon": "-83.963733"}, {"state": "MI", "opening_event": "", "address": "1000 Milliken Dr.,Traverse City, MI 49686", "name": "Traverse City", "lat": "44.767101", "phone": "(603) 851-5993", "photo": "https://i.imgur.com/hWkN1vt.png", "lon": "-85.590009"}, {"state": "MI", "opening_event": "", "address": "5818 N Wayne Rd., Westland, MI", "name": "Westland", "lat": "42.326473", "phone": "(845) 901-5659", "photo": "https://i.imgur.com/9lKVyrV.png", "lon": "-83.388647"}, {"state": "MO", "opening_event": "", "address": "823 Broadway St., Cape Girardeau, MO 63701", "name": "Cape Girardeau", "lat": "37.306729", "phone": "-", "photo": "https://i.imgur.com/swkLZDN.png", "lon": "-89.529209"}, {"state": "MO", "opening_event": "", "address": "15 S 10th St., Columbia, MO 65201", "name": "Columbia", "lat": "38.950906", "phone": "(603) 851-5912", "photo": "https://i.imgur.com/sRLXGg7.png", "lon": "-92.326806"}, {"state": "MO", "opening_event": "", "address": "14 Church St., Ferguson, MO 63135", "name": "Ferguson", "lat": "38.744931", "phone": "-", "photo": "https://i.imgur.com/kLBHtjo.png", "lon": "-90.304639"}, {"state": "MO", "opening_event": "", "address": "3600 Broadway, Kansas City, MO 64111", "name": "Kansas City", "lat": "39.062155", "phone": "(573) 489-5233", "photo": "https://i.imgur.com/QzDXOTb.png", "lon": "-94.59048"}, {"state": "MO", "opening_event": "", "address": "2626 Cherokee St., St. Louis, MO 63118", "name": "St. Louis - Cherokee St.", "lat": "38.593204", "phone": "-", "photo": "https://i.imgur.com/tQYY9Cv.png", "lon": "-90.226917"}, {"state": "MO", "opening_event": "", "address": "509 N Garrison Ave., St Louis, MO 63103", "name": "St. Louis - Garrison Ave.", "lat": "38.636165", "phone": "-", "photo": "https://i.imgur.com/QM4yXn4.png", "lon": "-90.22172"}, {"state": "MO", "opening_event": "", "address": "3911 Greer Ave., St. Louis, MO 63107", "name": "St. Louis - Greer Ave.", "lat": "38.660387", "phone": "-", "photo": "https://i.imgur.com/CeraJ4O.png", "lon": "-90.225627"}, {"state": "MS", "opening_event": "", "address": "824 Foley St., Jackson, MS 39202", "name": "Jackson", "lat": "32.307355", "phone": "(769) 524-7362", "photo": "https://i.imgur.com/JxoAzGt.png", "lon": "-90.166297"}, {"state": "NC", "opening_event": "", "address": "2296 US 70 Hwy., Swannanoa, NC 28778", "name": "Asheville", "lat": "35.599755", "phone": "(828) 581-4311", "photo": "https://i.imgur.com/QfTtzcg.png", "lon": "-82.407745"}, {"state": "NC", "opening_event": "", "address": "2424 N. Davidson St., Charlotte, NC 28205", "name": "Charlotte", "lat": "35.239994", "phone": "(980) 272-1417", "photo": "https://i.imgur.com/0x1vWVg.png", "lon": "-80.811127"}, {"state": "NC", "opening_event": "", "address": "207 N. Church St., Durham, NC 27701", "name": "Durham", "lat": "35.995271", "phone": "(919) 972-8407", "photo": "https://i.imgur.com/XVehuEY.png", "lon": "-78.899002"}, {"state": "NC", "opening_event": "", "address": " 2106 Rhodes Ave., Wilmington, NC 28405", "name": "Wilmington", "lat": "34.241721", "phone": "(910) 742-0946", "photo": "https://i.imgur.com/54xyiR8.png", "lon": "-77.922424"}, {"state": "NC", "opening_event": "", "address": "95 Waughtown St., Winston-Salem, NC 27127", "name": "Winston-Salem", "lat": "36.079276", "phone": "(336) 283-6098", "photo": "https://i.imgur.com/OIRAiR8.png", "lon": "-80.237869"}, {"state": "NE", "opening_event": "", "address": "211 N. 14th St., Lincoln, NE 68508", "name": "Lincoln", "lat": "40.814956", "phone": "(480) 239-3889", "photo": "https://i.imgur.com/y1Gblem.png", "lon": "-96.701454"}, {"state": "NE", "opening_event": "", "address": "6004 Pine St., Omaha, NE 68106", "name": "Omaha", "lat": "41.244322", "phone": "(402) 880-4076", "photo": "https://i.imgur.com/SassxOP.png", "lon": "-96.005219"}, {"state": "NH", "opening_event": "", "address": "835 Hanover St., Manchester, NH 03104", "name": "Manchester", "lat": "42.9873012", "phone": "(603) 935-9084 ", "photo": "https://i.imgur.com/t8aTBLA.png", "lon": "-71.4294765"}, {"state": "NV", "opening_event": "", "address": "1155 West 4th St., Reno, NV 89503", "name": "Reno", "lat": "39.526454", "phone": "(775) 857-7104", "photo": "https://i.imgur.com/EpaCQYi.png", "lon": "-119.828996"}, {"state": "NV", "opening_event": "", "address": "4440 S. Maryland Parkway, Las Vegas, NV 89119", "name": "Las Vegas", "lat": "36.10884", "phone": "-", "photo": "https://i.imgur.com/2sEjkZ4.png", "lon": "-115.137068"}, {"state": "OH", "opening_event": "https://goo.gl/0iAlnM", "address": "131 Cleveland Ave. S.W., Canton, OH 44702", "name": "Canton (Opening March 6th - Click Here to RSVP)", "lat": "40.798393", "phone": "-", "photo": "https://i.imgur.com/6iEQmQX.png", "lon": "-81.376869"}, {"state": "OH", "opening_event": "", "address": "2020 Euclid Ave., Cleveland, OH 44115", "name": "Cleveland", "lat": "41.501464", "phone": "(440) 315-2852", "photo": "https://i.imgur.com/TrU8HCg.png", "lon": "-81.67617"}, {"state": "OH", "opening_event": "", "address": "1181 E. Main St., Columbus, OH 43205", "name": "Columbus", "lat": "39.957172", "phone": "(540) 998-9425", "photo": "https://imgur.com/CcyKVUR.png", "lon": "-82.967561"}, {"state": "OH", "opening_event": "", "address": "807 Lime City Rd., Rossford, OH 43460 ", "name": "Toledo", "lat": "41.590027", "phone": "(567) 202-7340", "photo": "https://i.imgur.com/adlY3Yj.png", "lon": "-83.566635"}, {"state": "OH", "opening_event": "", "address": "950 Youngstown Warren Rd., Niles, OH 44446", "name": "Youngstown / Niles", "lat": "41.199041", "phone": "(951) 852-1455", "photo": "https://i.imgur.com/aEwJcNa.png", "lon": "-80.732408"}, {"state": "TN", "opening_event": "", "address": "16 E 11th St., Chattanooga, TN 37402 (3rd Floor)", "name": "Chattanooga", "lat": "35.043737", "phone": "(615) 924-7993", "photo": "https://i.imgur.com/E0VinTs.png", "lon": "-85.308865"}, {"state": "TN", "opening_event": "", "address": "1611 W. Market St., Johnson City, TN 37614", "name": "Johnson City", "lat": "36.312899", "phone": "(423) 895-3635", "photo": "https://i.imgur.com/NKDfRNY.png", "lon": "-82.382479"}, {"state": "TN", "opening_event": "", "address": "428 E Scott Ave., Knoxville, TN 37917", "name": "Knoxville", "lat": "35.986597", "phone": "(865) 313-1957", "photo": "https://i.imgur.com/xYHXNXw.png", "lon": "-83.926795"}, {"state": "TN", "opening_event": "", "address": "2869 Poplar Ave., Memphis, TN 38111", "name": "Memphis", "lat": "35.134267", "phone": "(901) 410-6147", "photo": "https://i.imgur.com/B9zbGvp.png", "lon": "-89.965759"}, {"state": "TN", "opening_event": "", "address": "136 Rosa L Parks Blvd., Nashville, TN 37203", "name": "Nashville", "lat": "36.160156", "phone": "(615) 424-0710", "photo": "https://i.imgur.com/7JyLqep.png", "lon": "-86.782478"}, {"state": "TX", "opening_event": "", "address": "1105 E. 6th St., Austin, TX 78702", "name": "Austin - 6th St.", "lat": "30.264533", "phone": "(512) 769-2513", "photo": "https://i.imgur.com/oFnyHGw.png", "lon": "-97.731283"}, {"state": "TX", "opening_event": "", "address": "1309 E. 7th St. Austin, TX 78702", "name": "Austin - 7th St.", "lat": "30.264578", "phone": "(512) 769-2513", "photo": "https://i.imgur.com/NTgXJl1.png", "lon": "-97.728452"}, {"state": "TX", "opening_event": "", "address": "3819 South Staples St., Corpus Christi, TX 78411", "name": "Corpus Christi", "lat": "27.738032", "phone": "(361) 460-2060", "photo": "https://i.imgur.com/zmK2eQk.png", "lon": "-97.387426"}, {"state": "TX", "opening_event": "", "address": "1408 N. Washington Ave., Dallas, TX 78204", "name": "Dallas", "lat": "32.796036", "phone": "(469) 708-2376", "photo": "https://i.imgur.com/xycNKT2.png", "lon": "-96.783307"}, {"state": "TX", "opening_event": "", "address": "119 Los Angeles Dr., El Paso, TX 79902", "name": "El Paso", "lat": "31.759498", "phone": "(281) 610-0762", "photo": "https://i.imgur.com/ihTWBSZ.png", "lon": "-106.497902"}, {"state": "TX", "opening_event": "", "address": "1629 Bonnie Brae St., Houston TX 77006", "name": "Houston", "lat": "29.733293", "phone": "(512) 938-8517 ", "photo": "https://i.imgur.com/lwVvNC7.png", "lon": "-95.400869"}, {"state": "TX", "opening_event": "", "address": "106 South 12th St., Edinburg, TX 78539", "name": "Rio Grande Valley", "lat": "26.300994", "phone": "(956) 357-4851", "photo": "https://i.imgur.com/91q3sOe.png", "lon": "-98.16111"}, {"state": "TX", "opening_event": "", "address": "3000 Interstate 10 Frontage Rd., San Antonio, TX 78201", "name": "San Antonio", "lat": "29.456631", "phone": "(575) 937-4813", "photo": "https://i.imgur.com/YtCpHBw.png", "lon": "-98.516209"}, {"state": "UT", "opening_event": "", "address": "17 400 S, Salt Lake City, UT 84111", "name": "Salt Lake City", "lat": "40.760939", "phone": "(385) 212-4186", "photo": "https://i.imgur.com/FvoyGBM.png", "lon": "-111.890384"}, {"state": "VT", "opening_event": "", "address": "131 Church St., Burlington, VT 05401", "name": "Burlington", "lat": "44.476761", "phone": "(855) 423-7643", "photo": "https://i.imgur.com/ZdZHJ6C.png", "lon": "-73.212811"}]